$GPGGA,051612.00,3129.6798000,N,12021.8016833,E,1,33,0.0,-15.409,M,6.809,M,0.0,*6E
$GPZDA,051612.00,15,09,2021,00,00,*47
$GPGGA,051613.00,3129.6798000,N,12021.8017000,E,1,32,0.0,-15.309,M,6.809,M,0.0,*60
$GPZDA,051613.00,15,09,2021,00,00,*46
$GPGGA,051614.00,3129.6798000,N,12021.8017166,E,1,31,0.0,-15.309,M,6.809,M,0.0,*65
$GPZDA,051614.00,15,09,2021,00,00,*41
$GPGGA,051615.00,3129.6797838,N,12021.8017166,E,1,33,0.0,-15.309,M,6.809,M,0.0,*6A
$GPZDA,051615.00,15,09,2021,00,00,*40
$GPGGA,051616.00,3129.6797838,N,12021.8017333,E,1,31,0.0,-15.409,M,6.809,M,0.0,*6E
$GPZDA,051616.00,15,09,2021,00,00,*43
$GPGGA,051617.00,3129.6797844,N,12021.8017333,E,1,33,0.0,-15.409,M,6.809,M,0.0,*66
$GPZDA,051617.00,15,09,2021,00,00,*42
$GPGGA,051618.00,3129.6797833,N,12021.8017500,E,1,31,0.0,-15.409,M,6.809,M,0.0,*6D
$GPZDA,051618.00,15,09,2021,00,00,*4D
$GPGGA,051619.00,3129.6797833,N,12021.8017500,E,1,31,0.0,-15.411,M,6.809,M,0.0,*65
$GPZDA,051619.00,15,09,2021,00,00,*4C
$GPGGA,051620.00,3129.6797833,N,12021.8017500,E,1,30,0.0,-15.412,M,6.809,M,0.0,*6D
$GPZDA,051620.00,15,09,2021,00,00,*46
$GPGGA,051621.00,3129.6798000,N,12021.8017666,E,1,31,0.0,-15.412,M,6.809,M,0.0,*69
$GPZDA,051621.00,15,09,2021,00,00,*47
$GPGGA,051622.00,3129.6798005,N,12021.8017666,E,1,33,0.0,-15.312,M,6.809,M,0.0,*6A
$GPZDA,051622.00,15,09,2021,00,00,*44
$GPGGA,051623.00,3129.6798177,N,12021.8017666,E,1,32,0.0,-15.312,M,6.809,M,0.0,*6E
$GPZDA,051623.00,15,09,2021,00,00,*45
$GPGGA,051624.00,3129.6798333,N,12021.8017666,E,1,33,0.0,-15.211,M,6.809,M,0.0,*68
$GPZDA,051624.00,15,09,2021,00,00,*42
$GPGGA,051625.00,3129.6798338,N,12021.8017500,E,1,32,0.0,-15.209,M,6.809,M,0.0,*69
$GPZDA,051625.00,15,09,2021,00,00,*43
$GPGGA,051626.00,3129.6798344,N,12021.8017500,E,1,33,0.0,-15.109,M,6.809,M,0.0,*63
$GPZDA,051626.00,15,09,2021,00,00,*40
$GPGGA,051627.00,3129.6798505,N,12021.8017333,E,1,32,0.0,-15.109,M,6.809,M,0.0,*66
$GPZDA,051627.00,15,09,2021,00,00,*41
$GPGGA,051628.00,3129.6798672,N,12021.8017000,E,1,33,0.0,-15.111,M,6.809,M,0.0,*61
$GPZDA,051628.00,15,09,2021,00,00,*4E
$GPGGA,051629.00,3129.6798500,N,12021.8016666,E,1,32,0.0,-15.109,M,6.809,M,0.0,*69
$GPZDA,051629.00,15,09,2021,00,00,*4F
$GPGGA,051630.00,3129.6798500,N,12021.8016333,E,1,32,0.0,-15.109,M,6.809,M,0.0,*64
$GPZDA,051630.00,15,09,2021,00,00,*47
$GPGGA,051631.00,3129.6798333,N,12021.8016000,E,1,31,0.0,-15.109,M,6.809,M,0.0,*63
$GPZDA,051631.00,15,09,2021,00,00,*46
$GPGGA,051632.00,3129.6798166,N,12021.8015666,E,1,31,0.0,-15.108,M,6.809,M,0.0,*66
$GPZDA,051632.00,15,09,2021,00,00,*45
$GPGGA,051633.00,3129.6798000,N,12021.8015166,E,1,31,0.0,-15.111,M,6.809,M,0.0,*69
$GPZDA,051633.00,15,09,2021,00,00,*44
$GPGGA,051634.00,3129.6797838,N,12021.8014833,E,1,31,0.0,-15.209,M,6.809,M,0.0,*60
$GPZDA,051634.00,15,09,2021,00,00,*43
$GPGGA,051635.00,3129.6797672,N,12021.8014333,E,1,31,0.0,-15.209,M,6.809,M,0.0,*6A
$GPZDA,051635.00,15,09,2021,00,00,*42
$GPGGA,051636.00,3129.6797333,N,12021.8013833,E,1,31,0.0,-15.308,M,6.809,M,0.0,*65
$GPZDA,051636.00,15,09,2021,00,00,*41
$GPGGA,051637.00,3129.6797000,N,12021.8013333,E,1,30,0.0,-15.309,M,6.809,M,0.0,*6C
$GPZDA,051637.00,15,09,2021,00,00,*40
$GPGGA,051638.00,3129.6796666,N,12021.8012999,E,1,31,0.0,-15.409,M,6.809,M,0.0,*69
$GPZDA,051638.00,15,09,2021,00,00,*4F
$GPGGA,051639.00,3129.6796505,N,12021.8012666,E,1,31,0.0,-15.508,M,6.809,M,0.0,*61
$GPZDA,051639.00,15,09,2021,00,00,*4E
$GPGGA,051640.00,3129.6796338,N,12021.8012333,E,1,32,0.0,-15.508,M,6.809,M,0.0,*61
$GPZDA,051640.00,15,09,2021,00,00,*40
$GPGGA,051641.00,3129.6795838,N,12021.8012166,E,1,32,0.0,-15.607,M,6.809,M,0.0,*66
$GPZDA,051641.00,15,09,2021,00,00,*41
$GPGGA,051642.00,3129.6795505,N,12021.8012000,E,1,32,0.0,-15.708,M,6.809,M,0.0,*69
$GPZDA,051642.00,15,09,2021,00,00,*42
$GPGGA,051643.00,3129.6795166,N,12021.8011833,E,1,30,0.0,-15.808,M,6.809,M,0.0,*6F
$GPZDA,051643.00,15,09,2021,00,00,*43
$GPGGA,051644.00,3129.6794838,N,12021.8011833,E,1,32,0.0,-15.808,M,6.809,M,0.0,*69
$GPZDA,051644.00,15,09,2021,00,00,*44
$GPGGA,051645.00,3129.6794666,N,12021.8011833,E,1,33,0.0,-15.908,M,6.809,M,0.0,*6D
$GPZDA,051645.00,15,09,2021,00,00,*45
$GPGGA,051646.00,3129.6794505,N,12021.8011833,E,1,31,0.0,-15.908,M,6.809,M,0.0,*6A
$GPZDA,051646.00,15,09,2021,00,00,*46
$GPGGA,051647.00,3129.6794338,N,12021.8012000,E,1,32,0.0,-16.008,M,6.809,M,0.0,*61
$GPZDA,051647.00,15,09,2021,00,00,*47
$GPGGA,051648.00,3129.6794166,N,12021.8012166,E,1,32,0.0,-16.008,M,6.809,M,0.0,*66
$GPZDA,051648.00,15,09,2021,00,00,*48
$GPGGA,051649.00,3129.6794016,N,12021.8012666,E,1,31,0.0,-16.008,M,6.809,M,0.0,*65
$GPZDA,051649.00,15,09,2021,00,00,*49
$GPGGA,051650.00,3129.6794000,N,12021.8012666,E,1,32,0.0,-16.008,M,6.809,M,0.0,*69
$GPZDA,051650.00,15,09,2021,00,00,*41
$GPGGA,051651.00,3129.6794021,N,12021.8012666,E,1,33,0.0,-15.906,M,6.809,M,0.0,*6E
$GPZDA,051651.00,15,09,2021,00,00,*40
$GPGGA,051652.00,3129.6794338,N,12021.8012999,E,1,24,0.0,-15.907,M,6.809,M,0.0,*6E
$GPZDA,051652.00,15,09,2021,00,00,*43
$GPGGA,051653.00,3129.6794683,N,12021.8013333,E,1,33,0.0,-15.806,M,6.809,M,0.0,*67
$GPZDA,051653.00,15,09,2021,00,00,*42
$GPGGA,051654.00,3129.6795510,N,12021.8013500,E,1,32,0.0,-15.603,M,6.809,M,0.0,*64
$GPZDA,051654.00,15,09,2021,00,00,*45
$GPZDA,051654.00,15,09,2021,00,00,*45
$GPGGA,051656.00,3129.6811470,N,12021.8018359,E,5,31,0.5,4.210,M,6.809,M,2.0,*78
$GPZDA,051656.00,15,09,2021,00,00,*47
$GPGGA,051657.00,3129.6811422,N,12021.8018914,E,5,28,0.5,4.210,M,6.809,M,2.0,*75
$GPZDA,051657.00,15,09,2021,00,00,*46
$GPGGA,051658.00,3129.6811343,N,12021.8018980,E,5,28,0.5,4.339,M,6.809,M,2.0,*7D
$GPZDA,051658.00,15,09,2021,00,00,*49
$GPGGA,051659.00,3129.6811796,N,12021.8019007,E,5,29,0.5,4.456,M,6.809,M,2.0,*78
$GPZDA,051659.00,15,09,2021,00,00,*48
$GPGGA,051700.00,3129.6812083,N,12021.8019473,E,5,28,0.5,4.687,M,6.809,M,2.0,*7D
$GPZDA,051700.00,15,09,2021,00,00,*45
$GPGGA,051701.00,3129.6812147,N,12021.8019557,E,5,28,0.5,4.877,M,6.809,M,2.0,*73
$GPZDA,051701.00,15,09,2021,00,00,*44
$GPGGA,051702.00,3129.6812311,N,12021.8019735,E,5,29,0.5,5.005,M,6.809,M,2.0,*7A
$GPZDA,051702.00,15,09,2021,00,00,*47
$GPGGA,051703.00,3129.6812497,N,12021.8019896,E,5,30,0.5,5.107,M,6.809,M,2.0,*7F
$GPZDA,051703.00,15,09,2021,00,00,*46
$GPGGA,051704.00,3129.6812593,N,12021.8019880,E,5,30,0.5,5.228,M,6.809,M,2.0,*74
$GPZDA,051704.00,15,09,2021,00,00,*41
$GPGGA,051705.00,3129.6812615,N,12021.8019856,E,5,30,0.5,5.318,M,6.809,M,2.0,*71
$GPZDA,051705.00,15,09,2021,00,00,*40
$GPGGA,051706.00,3129.6812638,N,12021.8019653,E,5,28,0.5,5.375,M,6.809,M,2.0,*74
$GPZDA,051706.00,15,09,2021,00,00,*43
$GPGGA,051707.00,3129.6812621,N,12021.8019456,E,5,28,0.5,5.493,M,6.809,M,3.0,*74
$GPZDA,051707.00,15,09,2021,00,00,*42
$GPGGA,051708.00,3129.6812551,N,12021.8019287,E,5,29,0.5,5.603,M,6.809,M,2.0,*7E
$GPZDA,051708.00,15,09,2021,00,00,*4D
$GPGGA,051709.00,3129.6812414,N,12021.8019145,E,5,31,0.5,5.703,M,6.809,M,2.0,*7A
$GPZDA,051709.00,15,09,2021,00,00,*4C
$GPGGA,051710.00,3129.6812303,N,12021.8019046,E,5,30,0.5,5.790,M,6.809,M,2.0,*7A
$GPZDA,051710.00,15,09,2021,00,00,*44
$GPGGA,051711.00,3129.6812244,N,12021.8019044,E,5,28,0.5,5.899,M,6.809,M,2.0,*74
$GPZDA,051711.00,15,09,2021,00,00,*45
$GPGGA,051712.00,3129.6812053,N,12021.8018956,E,5,29,0.5,5.931,M,6.809,M,2.0,*7A
$GPZDA,051712.00,15,09,2021,00,00,*46
$GPGGA,051713.00,3129.6811894,N,12021.8018872,E,5,29,0.5,5.950,M,6.809,M,2.0,*7B
$GPZDA,051713.00,15,09,2021,00,00,*47
$GPGGA,051714.00,3129.6811783,N,12021.8018837,E,5,29,0.5,5.975,M,6.809,M,2.0,*73
$GPZDA,051714.00,15,09,2021,00,00,*40
$GPGGA,051715.00,3129.6811639,N,12021.8018846,E,5,29,0.5,5.996,M,6.809,M,2.0,*79
$GPZDA,051715.00,15,09,2021,00,00,*41
$GPGGA,051716.00,3129.6811527,N,12021.8018785,E,5,29,0.5,5.963,M,6.809,M,2.0,*7C
$GPZDA,051716.00,15,09,2021,00,00,*42
$GPGGA,051717.00,3129.6811474,N,12021.8018869,E,5,29,0.5,6.011,M,6.809,M,2.0,*78
$GPZDA,051717.00,15,09,2021,00,00,*43
$GPGGA,051718.00,3129.6811372,N,12021.8018879,E,5,29,0.5,6.032,M,6.809,M,2.0,*76
$GPZDA,051718.00,15,09,2021,00,00,*4C
$GPGGA,051719.00,3129.6811262,N,12021.8018888,E,5,29,0.5,6.020,M,6.809,M,2.0,*7A
$GPZDA,051719.00,15,09,2021,00,00,*4D
$GPGGA,051720.00,3129.6811224,N,12021.8018944,E,5,29,0.5,6.059,M,6.809,M,2.0,*7D
$GPZDA,051720.00,15,09,2021,00,00,*47
$GPGGA,051721.00,3129.6811251,N,12021.8019111,E,5,29,0.5,6.110,M,6.809,M,2.0,*7B
$GPZDA,051721.00,15,09,2021,00,00,*46
$GPGGA,051722.00,3129.6811261,N,12021.8019271,E,5,30,0.5,6.166,M,6.809,M,2.0,*77
$GPZDA,051722.00,15,09,2021,00,00,*45
$GPGGA,051723.00,3129.6811238,N,12021.8019178,E,5,30,0.5,6.186,M,6.809,M,2.0,*7E
$GPZDA,051723.00,15,09,2021,00,00,*44
$GPGGA,051724.00,3129.6811245,N,12021.8019384,E,5,30,0.5,6.233,M,6.809,M,2.0,*7F
$GPZDA,051724.00,15,09,2021,00,00,*43
$GPGGA,051725.00,3129.6811371,N,12021.8019791,E,5,30,0.5,6.276,M,6.809,M,2.0,*79
$GPZDA,051725.00,15,09,2021,00,00,*42
$GPGGA,051726.00,3129.6814802,N,12021.8029182,E,5,30,0.5,8.605,M,6.809,M,2.0,*79
$GPZDA,051726.00,15,09,2021,00,00,*41
$GPGGA,051727.00,3129.6815421,N,12021.8029304,E,5,31,0.5,8.611,M,6.809,M,2.0,*7C
$GPZDA,051727.00,15,09,2021,00,00,*40
$GPGGA,051728.00,3129.6815245,N,12021.8027664,E,5,30,0.5,8.260,M,6.809,M,2.0,*79
$GPZDA,051728.00,15,09,2021,00,00,*4F
$GPGGA,051729.00,3129.6814626,N,12021.8025896,E,5,31,0.5,7.841,M,6.809,M,2.0,*7E
$GPZDA,051729.00,15,09,2021,00,00,*4E
$GPGGA,051730.00,3129.6813995,N,12021.8024811,E,5,30,0.5,7.526,M,6.809,M,2.0,*75
$GPZDA,051730.00,15,09,2021,00,00,*46
$GPGGA,051731.00,3129.6813391,N,12021.8023966,E,5,29,0.5,7.355,M,6.809,M,2.0,*76
$GPZDA,051731.00,15,09,2021,00,00,*47
$GPGGA,051732.00,3129.6813041,N,12021.8023733,E,5,31,0.5,7.256,M,6.809,M,2.0,*7E
$GPZDA,051732.00,15,09,2021,00,00,*44
$GPGGA,051733.00,3129.6812875,N,12021.8023952,E,5,31,0.5,7.228,M,6.809,M,2.0,*71
$GPZDA,051733.00,15,09,2021,00,00,*45
$GPGGA,051734.00,3129.6812754,N,12021.8023917,E,5,30,0.5,7.187,M,6.809,M,2.0,*7C
$GPZDA,051734.00,15,09,2021,00,00,*42
$GPGGA,051735.00,3129.6812777,N,12021.8023947,E,5,30,0.5,7.207,M,6.809,M,2.0,*72
$GPZDA,051735.00,15,09,2021,00,00,*43
$GPGGA,051736.00,3129.6812693,N,12021.8023647,E,5,30,0.5,7.159,M,6.809,M,2.0,*7D
$GPZDA,051736.00,15,09,2021,00,00,*40
$GPGGA,051737.00,3129.6812924,N,12021.8023994,E,5,31,0.5,7.130,M,6.809,M,2.0,*70
$GPZDA,051737.00,15,09,2021,00,00,*41
$GPGGA,051738.00,3129.6813120,N,12021.8024322,E,5,30,0.5,7.150,M,6.809,M,2.0,*75
$GPZDA,051738.00,15,09,2021,00,00,*4E
$GPGGA,051739.00,3129.6813262,N,12021.8024336,E,5,31,0.5,7.124,M,6.809,M,2.0,*76
$GPZDA,051739.00,15,09,2021,00,00,*4F
$GPGGA,051740.00,3129.6813379,N,12021.8024459,E,5,30,0.5,7.126,M,6.809,M,2.0,*7E
$GPZDA,051740.00,15,09,2021,00,00,*41
$GPGGA,051741.00,3129.6813427,N,12021.8024738,E,5,30,0.5,7.167,M,6.809,M,2.0,*72
$GPZDA,051741.00,15,09,2021,00,00,*40
$GPGGA,051742.00,3129.6813419,N,12021.8024884,E,5,30,0.5,7.223,M,6.809,M,2.0,*77
$GPZDA,051742.00,15,09,2021,00,00,*43
$GPGGA,051743.00,3129.6813464,N,12021.8024788,E,5,31,0.5,7.216,M,6.809,M,2.0,*78
$GPZDA,051743.00,15,09,2021,00,00,*42
$GPGGA,051744.00,3129.6813529,N,12021.8024710,E,5,31,0.5,7.240,M,6.809,M,2.0,*75
$GPZDA,051744.00,15,09,2021,00,00,*45
$GPGGA,051745.00,3129.6815467,N,12021.8021926,E,5,31,0.5,7.975,M,6.809,M,2.0,*7A
$GPZDA,051745.00,15,09,2021,00,00,*44
$GPGGA,051746.00,3129.6815689,N,12021.8022650,E,5,31,0.5,7.588,M,6.809,M,2.0,*78
$GPZDA,051746.00,15,09,2021,00,00,*47
$GPGGA,051747.00,3129.6816223,N,12021.8023797,E,5,30,0.5,7.027,M,6.809,M,2.0,*74
$GPZDA,051747.00,15,09,2021,00,00,*46
$GPGGA,051748.00,3129.6816524,N,12021.8023879,E,5,30,0.5,6.807,M,6.809,M,2.0,*7F
$GPZDA,051748.00,15,09,2021,00,00,*49
$GPGGA,051749.00,3129.6816890,N,12021.8023841,E,5,29,0.5,6.693,M,6.809,M,2.0,*7C
$GPZDA,051749.00,15,09,2021,00,00,*48
$GPGGA,051750.00,3129.6816768,N,12021.8023667,E,5,30,0.5,6.777,M,6.809,M,2.0,*75
$GPZDA,051750.00,15,09,2021,00,00,*40
$GPGGA,051751.00,3129.6816832,N,12021.8023612,E,5,30,0.5,6.789,M,6.809,M,2.0,*77
$GPZDA,051751.00,15,09,2021,00,00,*41
$GPGGA,051752.00,3129.6816877,N,12021.8024413,E,5,30,0.5,6.682,M,6.809,M,2.0,*7B
$GPZDA,051752.00,15,09,2021,00,00,*42
$GPGGA,051753.00,3129.6816842,N,12021.8024485,E,5,30,0.5,6.716,M,6.809,M,2.0,*7F
$GPZDA,051753.00,15,09,2021,00,00,*43
$GPGGA,051754.00,3129.6816885,N,12021.8024552,E,5,30,0.5,6.785,M,6.809,M,2.0,*72
$GPZDA,051754.00,15,09,2021,00,00,*44
$GPGGA,051755.00,3129.6816748,N,12021.8024614,E,5,30,0.5,6.876,M,6.809,M,2.0,*7F
$GPZDA,051755.00,15,09,2021,00,00,*45
$GPGGA,051756.00,3129.6816604,N,12021.8024405,E,5,30,0.5,6.886,M,6.809,M,2.0,*78
$GPZDA,051756.00,15,09,2021,00,00,*46
$GPGGA,051757.00,3129.6822231,N,12021.8028143,E,5,29,0.5,4.297,M,6.809,M,2.0,*77
$GPZDA,051757.00,15,09,2021,00,00,*47
$GPGGA,051758.00,3129.6820876,N,12021.8028472,E,5,29,0.5,5.232,M,6.809,M,2.0,*7A
$GPZDA,051758.00,15,09,2021,00,00,*48
$GPGGA,051759.00,3129.6820030,N,12021.8028545,E,5,30,0.5,5.897,M,6.809,M,2.0,*79
$GPZDA,051759.00,15,09,2021,00,00,*49
$GPGGA,051800.00,3129.6819442,N,12021.8027412,E,5,30,0.5,6.446,M,6.809,M,2.0,*7E
$GPZDA,051800.00,15,09,2021,00,00,*4A
$GPGGA,051801.00,3129.6818682,N,12021.8026149,E,5,30,0.5,6.788,M,6.809,M,2.0,*7B
$GPZDA,051801.00,15,09,2021,00,00,*4B
$GPGGA,051802.00,3129.6817946,N,12021.8026011,E,5,31,0.5,6.865,M,6.809,M,2.0,*71
$GPZDA,051802.00,15,09,2021,00,00,*48
$GPGGA,051803.00,3129.6817575,N,12021.8026188,E,5,32,0.5,6.859,M,6.809,M,2.0,*71
$GPZDA,051803.00,15,09,2021,00,00,*49
$GPGGA,051804.00,3129.6817033,N,12021.8025977,E,5,30,0.5,6.801,M,6.809,M,2.0,*75
$GPZDA,051804.00,15,09,2021,00,00,*4E
$GPGGA,051805.00,3129.6816568,N,12021.8025927,E,5,32,0.5,6.789,M,6.809,M,2.0,*76
$GPZDA,051805.00,15,09,2021,00,00,*4F
$GPGGA,051806.00,3129.6816203,N,12021.8026308,E,5,31,0.5,6.838,M,6.809,M,2.0,*7D
$GPZDA,051806.00,15,09,2021,00,00,*4C
$GPGGA,051807.00,3129.6815855,N,12021.8026325,E,5,30,0.5,6.829,M,6.809,M,2.0,*78
$GPZDA,051807.00,15,09,2021,00,00,*4D
$GPGGA,051808.00,3129.6815653,N,12021.8026307,E,5,30,0.5,6.848,M,6.809,M,2.0,*78
$GPZDA,051808.00,15,09,2021,00,00,*42
$GPGGA,051809.00,3129.6815335,N,12021.8026263,E,5,31,0.5,6.870,M,6.809,M,2.0,*75
$GPZDA,051809.00,15,09,2021,00,00,*43
$GPGGA,051810.00,3129.6814896,N,12021.8025982,E,5,30,0.5,6.995,M,6.809,M,2.0,*72
$GPZDA,051810.00,15,09,2021,00,00,*4B
$GPGGA,051811.00,3129.6810099,N,12021.8025268,E,5,31,0.5,7.906,M,6.809,M,2.0,*75
$GPZDA,051811.00,15,09,2021,00,00,*4A
$GPGGA,051812.00,3129.6809591,N,12021.8026193,E,5,32,0.5,7.896,M,6.809,M,2.0,*7C
$GPZDA,051812.00,15,09,2021,00,00,*49
$GPGGA,051813.00,3129.6810350,N,12021.8026314,E,5,32,0.5,8.148,M,6.809,M,2.0,*76
$GPZDA,051813.00,15,09,2021,00,00,*48
$GPGGA,051814.00,3129.6810998,N,12021.8026093,E,5,32,0.5,8.296,M,6.809,M,2.0,*73
$GPZDA,051814.00,15,09,2021,00,00,*4F
$GPGGA,051815.00,3129.6810654,N,12021.8025567,E,5,32,0.5,8.212,M,6.809,M,2.0,*7C
$GPZDA,051815.00,15,09,2021,00,00,*4E
$GPGGA,051816.00,3129.6807797,N,12021.8021827,E,5,31,0.5,7.537,M,6.809,M,2.0,*76
$GPZDA,051816.00,15,09,2021,00,00,*4D
$GPGGA,051817.00,3129.6811304,N,12021.8027457,E,5,31,0.5,8.184,M,6.809,M,2.0,*70
$GPZDA,051817.00,15,09,2021,00,00,*4C
$GPGGA,051818.00,3129.6808904,N,12021.8024751,E,5,30,0.5,6.724,M,6.809,M,2.0,*78
$GPZDA,051818.00,15,09,2021,00,00,*43
$GPGGA,051819.00,3129.6810309,N,12021.8025320,E,5,31,0.5,6.949,M,6.809,M,2.0,*70
$GPZDA,051819.00,15,09,2021,00,00,*42
$GPGGA,051820.00,3129.6810413,N,12021.8025206,E,5,31,0.5,6.779,M,6.809,M,2.0,*7E
$GPZDA,051820.00,15,09,2021,00,00,*48
$GPGGA,051821.00,3129.6810380,N,12021.8025447,E,5,31,0.5,6.541,M,6.809,M,2.0,*78
$GPZDA,051821.00,15,09,2021,00,00,*49
$GPGGA,051822.00,3129.6809897,N,12021.8025135,E,5,31,0.5,6.314,M,6.809,M,2.0,*78
$GPZDA,051822.00,15,09,2021,00,00,*4A
$GPGGA,051823.00,3129.6809689,N,12021.8025071,E,5,31,0.5,6.129,M,6.809,M,2.0,*75
$GPZDA,051823.00,15,09,2021,00,00,*4B
$GPGGA,051824.00,3129.6809289,N,12021.8024899,E,5,31,0.5,5.964,M,6.809,M,2.0,*7B
$GPZDA,051824.00,15,09,2021,00,00,*4C
$GPGGA,051825.00,3129.6808907,N,12021.8024885,E,5,30,0.5,5.862,M,6.809,M,2.0,*7D
$GPZDA,051825.00,15,09,2021,00,00,*4D
$GPGGA,051826.00,3129.6808581,N,12021.8024480,E,5,30,0.5,5.714,M,6.809,M,2.0,*7B
$GPZDA,051826.00,15,09,2021,00,00,*4E
$GPGGA,051827.00,3129.6808053,N,12021.8024109,E,5,30,0.5,5.568,M,6.809,M,2.0,*7D
$GPZDA,051827.00,15,09,2021,00,00,*4F
$GPGGA,051828.00,3129.6807818,N,12021.8024072,E,5,30,0.5,5.416,M,6.809,M,2.0,*7F
$GPZDA,051828.00,15,09,2021,00,00,*40
$GPGGA,051829.00,3129.6807679,N,12021.8023935,E,5,30,0.5,5.384,M,6.809,M,2.0,*76
$GPZDA,051829.00,15,09,2021,00,00,*41
$GPGGA,051830.00,3129.6807471,N,12021.8023853,E,5,30,0.5,5.298,M,6.809,M,2.0,*79
$GPZDA,051830.00,15,09,2021,00,00,*49
$GPGGA,051831.00,3129.6807419,N,12021.8023799,E,5,30,0.5,5.236,M,6.809,M,2.0,*7B
$GPZDA,051831.00,15,09,2021,00,00,*48
$GPGGA,051832.00,3129.6807322,N,12021.8023738,E,5,31,0.5,5.188,M,6.809,M,2.0,*7B
$GPZDA,051832.00,15,09,2021,00,00,*4B
$GPGGA,051833.00,3129.6807227,N,12021.8023603,E,5,30,0.5,5.094,M,6.809,M,2.0,*7A
$GPZDA,051833.00,15,09,2021,00,00,*4A
$GPGGA,051834.00,3129.6807101,N,12021.8023635,E,5,31,0.5,5.055,M,6.809,M,2.0,*73
$GPZDA,051834.00,15,09,2021,00,00,*4D
$GPGGA,051835.00,3129.6806998,N,12021.8023689,E,5,31,0.5,5.030,M,6.809,M,2.0,*7F
$GPZDA,051835.00,15,09,2021,00,00,*4C
$GPGGA,051836.00,3129.6807021,N,12021.8023947,E,5,31,0.5,5.046,M,6.809,M,2.0,*7A
$GPZDA,051836.00,15,09,2021,00,00,*4F
$GPGGA,051837.00,3129.6806959,N,12021.8024124,E,5,30,0.5,5.033,M,6.809,M,2.0,*75
$GPZDA,051837.00,15,09,2021,00,00,*4E
$GPGGA,051838.00,3129.6806901,N,12021.8024323,E,5,30,0.5,4.998,M,6.809,M,2.0,*7B
$GPZDA,051838.00,15,09,2021,00,00,*41
$GPGGA,051839.00,3129.6806744,N,12021.8024312,E,5,30,0.5,4.925,M,6.809,M,2.0,*71
$GPZDA,051839.00,15,09,2021,00,00,*40
$GPGGA,051840.00,3129.6806515,N,12021.8024161,E,5,30,0.5,4.884,M,6.809,M,2.0,*75
$GPZDA,051840.00,15,09,2021,00,00,*4E
$GPGGA,051841.00,3129.6806266,N,12021.8023969,E,5,30,0.5,4.857,M,6.809,M,2.0,*7E
$GPZDA,051841.00,15,09,2021,00,00,*4F
$GPGGA,051842.00,3129.6806222,N,12021.8023856,E,5,29,0.5,4.831,M,6.809,M,2.0,*78
$GPZDA,051842.00,15,09,2021,00,00,*4C
$GPGGA,051843.00,3129.6806168,N,12021.8023739,E,5,28,0.5,4.786,M,6.809,M,2.0,*70
$GPZDA,051843.00,15,09,2021,00,00,*4D
$GPGGA,051844.00,3129.6806128,N,12021.8023627,E,5,28,0.5,4.759,M,6.809,M,2.0,*7F
$GPZDA,051844.00,15,09,2021,00,00,*4A
$GPGGA,051845.00,3129.6806096,N,12021.8023472,E,5,30,0.5,4.717,M,6.809,M,2.0,*7B
$GPZDA,051845.00,15,09,2021,00,00,*4B
$GPGGA,051846.00,3129.6806041,N,12021.8023396,E,5,29,0.5,4.689,M,6.809,M,2.0,*71
$GPZDA,051846.00,15,09,2021,00,00,*48
$GPGGA,051847.00,3129.6806062,N,12021.8023336,E,5,31,0.5,4.680,M,6.809,M,2.0,*7B
$GPZDA,051847.00,15,09,2021,00,00,*49
$GPGGA,051848.00,3129.6806060,N,12021.8023386,E,5,30,0.5,4.683,M,6.809,M,2.0,*7F
$GPZDA,051848.00,15,09,2021,00,00,*46
$GPGGA,051849.00,3129.6806877,N,12021.8019194,E,5,30,0.5,3.625,M,6.809,M,2.0,*73
$GPZDA,051849.00,15,09,2021,00,00,*47
$GPGGA,051850.00,3129.6806653,N,12021.8018490,E,5,29,0.5,3.375,M,6.809,M,2.0,*7B
$GPZDA,051850.00,15,09,2021,00,00,*4F
$GPGGA,051851.00,3129.6806890,N,12021.8018460,E,5,30,0.5,3.376,M,6.809,M,2.0,*7F
$GPZDA,051851.00,15,09,2021,00,00,*4E
$GPGGA,051852.00,3129.6806178,N,12021.8017653,E,5,30,0.5,3.228,M,6.809,M,2.0,*74
$GPZDA,051852.00,15,09,2021,00,00,*4D
$GPGGA,051853.00,3129.6807914,N,12021.8019782,E,5,30,0.5,3.417,M,6.809,M,2.0,*7F
$GPZDA,051853.00,15,09,2021,00,00,*4C
$GPGGA,051854.00,3129.6807333,N,12021.8019772,E,5,29,0.5,3.231,M,6.809,M,2.0,*72
$GPZDA,051854.00,15,09,2021,00,00,*4B
$GPGGA,051855.00,3129.6806597,N,12021.8019337,E,5,30,0.5,3.019,M,6.809,M,2.0,*7F
$GPZDA,051855.00,15,09,2021,00,00,*4A
$GPGGA,051856.00,3129.6805810,N,12021.8018607,E,5,30,0.5,2.996,M,6.809,M,2.0,*75
$GPZDA,051856.00,15,09,2021,00,00,*49
$GPGGA,051857.00,3129.6805506,N,12021.8018252,E,5,30,0.5,2.952,M,6.809,M,2.0,*72
$GPZDA,051857.00,15,09,2021,00,00,*48
$GPGGA,051858.00,3129.6801581,N,12021.8013705,E,5,30,0.5,2.392,M,6.809,M,2.0,*7C
$GPZDA,051858.00,15,09,2021,00,00,*47
$GPGGA,051859.00,3129.6801749,N,12021.8012812,E,5,30,0.5,2.394,M,6.809,M,2.0,*75
$GPZDA,051859.00,15,09,2021,00,00,*46
$GPGGA,051900.00,3129.6801961,N,12021.8013432,E,5,30,0.5,2.399,M,6.809,M,2.0,*7E
$GPZDA,051900.00,15,09,2021,00,00,*4B
$GPGGA,051901.00,3129.6801837,N,12021.8013568,E,5,30,0.5,2.295,M,6.809,M,2.0,*7E
$GPZDA,051901.00,15,09,2021,00,00,*4A
$GPGGA,051902.00,3129.6802093,N,12021.8013818,E,5,30,0.5,2.268,M,6.809,M,2.0,*70
$GPZDA,051902.00,15,09,2021,00,00,*49
$GPGGA,051903.00,3129.6802277,N,12021.8013584,E,5,30,0.5,2.126,M,6.809,M,2.0,*78
$GPZDA,051903.00,15,09,2021,00,00,*48
$GPGGA,051904.00,3129.6802391,N,12021.8013478,E,5,30,0.5,2.060,M,6.809,M,2.0,*77
$GPZDA,051904.00,15,09,2021,00,00,*4F
$GPGGA,051905.00,3129.6802436,N,12021.8013502,E,5,30,0.5,2.025,M,6.809,M,2.0,*71
$GPZDA,051905.00,15,09,2021,00,00,*4E
$GPGGA,051906.00,3129.6802789,N,12021.8013825,E,5,30,0.5,2.114,M,6.809,M,2.0,*7E
$GPZDA,051906.00,15,09,2021,00,00,*4D
$GPGGA,051907.00,3129.6803079,N,12021.8014044,E,5,30,0.5,2.246,M,6.809,M,2.0,*7A
$GPZDA,051907.00,15,09,2021,00,00,*4C
$GPGGA,051908.00,3129.6803548,N,12021.8014394,E,5,30,0.5,2.319,M,6.809,M,2.0,*77
$GPZDA,051908.00,15,09,2021,00,00,*43
$GPGGA,051909.00,3129.6803847,N,12021.8014624,E,5,30,0.5,2.403,M,6.809,M,2.0,*76
$GPZDA,051909.00,15,09,2021,00,00,*42
$GPGGA,051910.00,3129.6804101,N,12021.8014801,E,5,30,0.5,2.447,M,6.809,M,2.0,*7B
$GPZDA,051910.00,15,09,2021,00,00,*4A
$GPGGA,051911.00,3129.6804308,N,12021.8014962,E,5,29,0.5,2.501,M,6.809,M,2.0,*7E
$GPZDA,051911.00,15,09,2021,00,00,*4B
$GPGGA,051912.00,3129.6811271,N,12021.8024278,E,5,31,0.5,3.820,M,6.809,M,2.0,*73
$GPZDA,051912.00,15,09,2021,00,00,*48
$GPGGA,051913.00,3129.6810902,N,12021.8023839,E,5,30,0.5,4.147,M,6.809,M,2.0,*7A
$GPZDA,051913.00,15,09,2021,00,00,*49
$GPGGA,051914.00,3129.6806216,N,12021.8019875,E,5,30,0.5,4.981,M,6.809,M,2.0,*77
$GPZDA,051914.00,15,09,2021,00,00,*4E
$GPGGA,051915.00,3129.6807028,N,12021.8020235,E,5,30,0.5,5.170,M,6.809,M,2.0,*7B
$GPZDA,051915.00,15,09,2021,00,00,*4F
$GPGGA,051916.00,3129.6809519,N,12021.8023336,E,5,30,0.5,5.067,M,6.809,M,2.0,*77
$GPZDA,051916.00,15,09,2021,00,00,*4C
$GPGGA,051917.00,3129.6809898,N,12021.8021817,E,5,30,0.5,5.580,M,6.809,M,2.0,*74
$GPZDA,051917.00,15,09,2021,00,00,*4D
$GPGGA,051918.00,3129.6809026,N,12021.8022116,E,5,30,0.5,5.546,M,6.809,M,2.0,*77
$GPZDA,051918.00,15,09,2021,00,00,*42
$GPGGA,051919.00,3129.6809291,N,12021.8023028,E,5,30,0.5,5.121,M,6.809,M,2.0,*70
$GPZDA,051919.00,15,09,2021,00,00,*43
$GPGGA,051920.00,3129.6808997,N,12021.8023322,E,5,30,0.5,4.146,M,6.809,M,2.0,*7F
$GPZDA,051920.00,15,09,2021,00,00,*49
$GPGGA,051921.00,3129.6805020,N,12021.8016828,E,5,31,0.5,2.877,M,6.809,M,2.0,*7D
$GPZDA,051921.00,15,09,2021,00,00,*48
$GPGGA,051922.00,3129.6804762,N,12021.8015701,E,5,31,0.5,2.962,M,6.809,M,2.0,*7C
$GPZDA,051922.00,15,09,2021,00,00,*4B
$GPGGA,051923.00,3129.6804540,N,12021.8015234,E,5,31,0.5,3.180,M,6.809,M,2.0,*79
$GPZDA,051923.00,15,09,2021,00,00,*4A
$GPGGA,051924.00,3129.6805783,N,12021.8016630,E,5,30,0.5,3.601,M,6.809,M,2.0,*7E
$GPZDA,051924.00,15,09,2021,00,00,*4D
$GPGGA,051925.00,3129.6810969,N,12021.8022928,E,5,30,0.5,5.016,M,6.809,M,2.0,*76
$GPZDA,051925.00,15,09,2021,00,00,*4C
$GPGGA,051926.00,3129.6811145,N,12021.8022512,E,5,31,0.5,4.907,M,6.809,M,2.0,*7E
$GPZDA,051926.00,15,09,2021,00,00,*4F
$GPGGA,051927.00,3129.6811325,N,12021.8022961,E,5,30,0.5,4.871,M,6.809,M,2.0,*72
$GPZDA,051927.00,15,09,2021,00,00,*4E
$GPGGA,051928.00,3129.6810516,N,12021.8019722,E,5,29,0.5,4.353,M,6.809,M,2.0,*78
$GPZDA,051928.00,15,09,2021,00,00,*41
$GPGGA,051929.00,3129.6811705,N,12021.8021014,E,5,29,0.5,4.511,M,6.809,M,2.0,*71
$GPZDA,051929.00,15,09,2021,00,00,*40
$GPGGA,051930.00,3129.6812522,N,12021.8022837,E,5,31,0.5,4.708,M,6.809,M,2.0,*74
$GPZDA,051930.00,15,09,2021,00,00,*48
$GPGGA,051931.00,3129.6810356,N,12021.8023495,E,5,30,0.5,4.721,M,6.809,M,2.0,*7D
$GPZDA,051931.00,15,09,2021,00,00,*49
$GPGGA,051932.00,3129.6812148,N,12021.8024643,E,5,30,0.5,4.837,M,6.809,M,2.0,*77
$GPZDA,051932.00,15,09,2021,00,00,*4A
$GPGGA,051933.00,3129.6812860,N,12021.8025232,E,5,30,0.5,4.946,M,6.809,M,2.0,*71
$GPZDA,051933.00,15,09,2021,00,00,*4B
$GPGGA,051934.00,3129.6813657,N,12021.8025897,E,5,30,0.5,4.921,M,6.809,M,2.0,*79
$GPZDA,051934.00,15,09,2021,00,00,*4C
$GPGGA,051935.00,3129.6814174,N,12021.8026280,E,5,30,0.5,5.026,M,6.809,M,2.0,*79
$GPZDA,051935.00,15,09,2021,00,00,*4D
$GPGGA,051936.00,3129.6814436,N,12021.8026868,E,5,29,0.5,5.185,M,6.809,M,2.0,*75
$GPZDA,051936.00,15,09,2021,00,00,*4E
$GPGGA,051937.00,3129.6814676,N,12021.8027294,E,5,30,0.5,5.271,M,6.809,M,2.0,*7A
$GPZDA,051937.00,15,09,2021,00,00,*4F
$GPGGA,051938.00,3129.6816506,N,12021.8029779,E,5,29,0.5,6.115,M,6.809,M,2.0,*71
$GPZDA,051938.00,15,09,2021,00,00,*40
$GPGGA,051939.00,3129.6816611,N,12021.8029966,E,5,32,0.5,5.986,M,6.809,M,2.0,*7E
$GPZDA,051939.00,15,09,2021,00,00,*41
$GPGGA,051940.00,3129.6816731,N,12021.8030054,E,5,31,0.5,5.940,M,6.809,M,2.0,*7A
$GPZDA,051940.00,15,09,2021,00,00,*4F
$GPGGA,051941.00,3129.6817512,N,12021.8030492,E,5,32,0.5,6.149,M,6.809,M,2.0,*76
$GPZDA,051941.00,15,09,2021,00,00,*4E
$GPGGA,051942.00,3129.6817193,N,12021.8028759,E,5,31,0.5,7.360,M,6.809,M,2.0,*7E
$GPZDA,051942.00,15,09,2021,00,00,*4D
$GPGGA,051943.00,3129.6816906,N,12021.8030918,E,5,32,0.5,6.935,M,6.809,M,2.0,*70
$GPZDA,051943.00,15,09,2021,00,00,*4C
$GPGGA,051944.00,3129.6816516,N,12021.8031157,E,5,32,0.5,6.696,M,6.809,M,2.0,*7E
$GPZDA,051944.00,15,09,2021,00,00,*4B
$GPGGA,051945.00,3129.6816440,N,12021.8032080,E,5,31,0.5,6.675,M,6.809,M,2.0,*7B
$GPZDA,051945.00,15,09,2021,00,00,*4A
$GPGGA,051946.00,3129.6816447,N,12021.8032328,E,5,32,0.5,6.620,M,6.809,M,2.0,*7D
$GPZDA,051946.00,15,09,2021,00,00,*49
$GPGGA,051947.00,3129.6816362,N,12021.8032350,E,5,31,0.5,6.536,M,6.809,M,2.0,*74
$GPZDA,051947.00,15,09,2021,00,00,*48
$GPGGA,051948.00,3129.6816299,N,12021.8032367,E,5,31,0.5,6.436,M,6.809,M,2.0,*7B
$GPZDA,051948.00,15,09,2021,00,00,*47
$GPGGA,051949.00,3129.6816296,N,12021.8032464,E,5,31,0.5,6.412,M,6.809,M,2.0,*77
$GPZDA,051949.00,15,09,2021,00,00,*46
$GPGGA,051950.00,3129.6816632,N,12021.8032401,E,5,31,0.5,6.451,M,6.809,M,2.0,*71
$GPZDA,051950.00,15,09,2021,00,00,*4E
$GPGGA,051951.00,3129.6816914,N,12021.8032451,E,5,31,0.5,6.524,M,6.809,M,2.0,*7D
$GPZDA,051951.00,15,09,2021,00,00,*4F
$GPGGA,051952.00,3129.6820579,N,12021.8034822,E,5,32,0.5,6.255,M,6.809,M,2.0,*70
$GPZDA,051952.00,15,09,2021,00,00,*4C
$GPGGA,051953.00,3129.6820329,N,12021.8034757,E,5,32,0.5,6.073,M,6.809,M,2.0,*79
$GPZDA,051953.00,15,09,2021,00,00,*4D
$GPGGA,051954.00,3129.6820731,N,12021.8034563,E,5,32,0.5,6.028,M,6.809,M,2.0,*78
$GPZDA,051954.00,15,09,2021,00,00,*4A
$GPGGA,051955.00,3129.6820968,N,12021.8034658,E,5,32,0.5,5.970,M,6.809,M,2.0,*77
$GPZDA,051955.00,15,09,2021,00,00,*4B
$GPGGA,051956.00,3129.6819068,N,12021.8033896,E,5,32,0.5,5.100,M,6.809,M,2.0,*73
$GPZDA,051956.00,15,09,2021,00,00,*48
$GPGGA,051957.00,3129.6818383,N,12021.8032056,E,5,32,0.5,5.452,M,6.809,M,2.0,*72
$GPZDA,051957.00,15,09,2021,00,00,*49
$GPGGA,051958.00,3129.6817273,N,12021.8030360,E,5,31,0.5,5.175,M,6.809,M,2.0,*7B
$GPZDA,051958.00,15,09,2021,00,00,*46
$GPGGA,051959.00,3129.6816410,N,12021.8029253,E,5,31,0.5,4.921,M,6.809,M,2.0,*79
$GPZDA,051959.00,15,09,2021,00,00,*47
$GPGGA,052000.00,3129.6815695,N,12021.8028646,E,5,31,0.5,4.819,M,6.809,M,2.0,*78
$GPZDA,052000.00,15,09,2021,00,00,*41
$GPGGA,052001.00,3129.6815201,N,12021.8028610,E,5,30,0.5,4.642,M,6.809,M,2.0,*72
$GPZDA,052001.00,15,09,2021,00,00,*40
$GPGGA,052002.00,3129.6814695,N,12021.8028189,E,5,31,0.5,4.448,M,6.809,M,2.0,*77
$GPZDA,052002.00,15,09,2021,00,00,*43
$GPGGA,052003.00,3129.6814210,N,12021.8027790,E,5,32,0.5,4.374,M,6.809,M,2.0,*75
$GPZDA,052003.00,15,09,2021,00,00,*42
$GPGGA,052004.00,3129.6813795,N,12021.8027598,E,5,30,0.5,4.323,M,6.809,M,2.0,*77
$GPZDA,052004.00,15,09,2021,00,00,*45
$GPGGA,052005.00,3129.6810838,N,12021.8025473,E,5,31,0.5,3.575,M,6.809,M,2.0,*78
$GPZDA,052005.00,15,09,2021,00,00,*44
$GPGGA,052006.00,3129.6810516,N,12021.8025872,E,5,31,0.5,3.682,M,6.809,M,2.0,*7C
$GPZDA,052006.00,15,09,2021,00,00,*47
$GPGGA,052007.00,3129.6809929,N,12021.8025655,E,5,31,0.5,3.549,M,6.809,M,2.0,*7A
$GPZDA,052007.00,15,09,2021,00,00,*46
$GPGGA,052008.00,3129.6810297,N,12021.8025369,E,5,31,0.5,3.036,M,6.809,M,2.0,*74
$GPZDA,052008.00,15,09,2021,00,00,*49
$GPGGA,052009.00,3129.6809834,N,12021.8024136,E,5,31,0.5,3.693,M,6.809,M,2.0,*7E
$GPZDA,052009.00,15,09,2021,00,00,*48
$GPGGA,052010.00,3129.6809342,N,12021.8022054,E,5,31,0.5,3.516,M,6.809,M,2.0,*71
$GPZDA,052010.00,15,09,2021,00,00,*40
$GPGGA,052011.00,3129.6809463,N,12021.8022024,E,5,30,0.5,3.872,M,6.809,M,2.0,*7D
$GPZDA,052011.00,15,09,2021,00,00,*41
$GPGGA,052012.00,3129.6809710,N,12021.8022106,E,5,31,0.5,3.787,M,6.809,M,2.0,*7C
$GPZDA,052012.00,15,09,2021,00,00,*42
$GPGGA,052013.00,3129.6807956,N,12021.8015624,E,5,32,0.5,2.846,M,6.809,M,2.0,*7C
$GPZDA,052013.00,15,09,2021,00,00,*43
$GPGGA,052014.00,3129.6812027,N,12021.8021836,E,5,31,0.5,3.843,M,6.809,M,2.0,*7D
$GPZDA,052014.00,15,09,2021,00,00,*44
$GPGGA,052015.00,3129.6812262,N,12021.8021609,E,5,30,0.5,3.759,M,6.809,M,2.0,*78
$GPZDA,052015.00,15,09,2021,00,00,*45
$GPGGA,052016.00,3129.6812249,N,12021.8020949,E,5,31,0.5,3.785,M,6.809,M,2.0,*78
$GPZDA,052016.00,15,09,2021,00,00,*46
$GPGGA,052017.00,3129.6812729,N,12021.8021678,E,5,32,0.5,3.642,M,6.809,M,2.0,*7F
$GPZDA,052017.00,15,09,2021,00,00,*47
$GPGGA,052018.00,3129.6812893,N,12021.8021805,E,5,32,0.5,3.588,M,6.809,M,2.0,*7F
$GPZDA,052018.00,15,09,2021,00,00,*48
$GPGGA,052019.00,3129.6812688,N,12021.8021907,E,5,32,0.5,3.703,M,6.809,M,2.0,*78
$GPZDA,052019.00,15,09,2021,00,00,*49
$GPGGA,052020.00,3129.6812753,N,12021.8021514,E,5,30,0.5,3.852,M,6.809,M,2.0,*72
$GPZDA,052020.00,15,09,2021,00,00,*43
$GPGGA,052021.00,3129.6811693,N,12021.8017872,E,4,31,0.5,4.531,M,6.809,M,2.0,*7A
$GPZDA,052021.00,15,09,2021,00,00,*42
$GPGGA,052022.00,3129.6812094,N,12021.8018244,E,5,31,0.5,4.776,M,6.809,M,2.0,*7B
$GPZDA,052022.00,15,09,2021,00,00,*41
$GPGGA,052023.00,3129.6811621,N,12021.8017700,E,4,32,0.5,4.506,M,6.809,M,2.0,*7C
$GPZDA,052023.00,15,09,2021,00,00,*40
$GPGGA,052024.00,3129.6811626,N,12021.8017914,E,5,32,0.5,4.428,M,6.809,M,2.0,*7B
$GPZDA,052024.00,15,09,2021,00,00,*47
$GPGGA,052025.00,3129.6811632,N,12021.8017685,E,4,32,0.5,4.509,M,6.809,M,2.0,*7B
$GPZDA,052025.00,15,09,2021,00,00,*46
$GPGGA,052026.00,3129.6811627,N,12021.8017672,E,4,32,0.5,4.513,M,6.809,M,2.0,*7F
$GPZDA,052026.00,15,09,2021,00,00,*45
$GPGGA,052027.00,3129.6811606,N,12021.8017663,E,4,32,0.5,4.505,M,6.809,M,2.0,*7A
$GPZDA,052027.00,15,09,2021,00,00,*44
$GPGGA,052028.00,3129.6811597,N,12021.8017632,E,4,32,0.5,4.511,M,6.809,M,2.0,*7F
$GPZDA,052028.00,15,09,2021,00,00,*4B
$GPGGA,052029.00,3129.6811637,N,12021.8017682,E,4,32,0.5,4.532,M,6.809,M,2.0,*7D
$GPZDA,052029.00,15,09,2021,00,00,*4A
$GPGGA,052030.00,3129.6811629,N,12021.8017722,E,4,32,0.5,4.539,M,6.809,M,2.0,*7A
$GPZDA,052030.00,15,09,2021,00,00,*42
$GPGGA,052031.00,3129.6811621,N,12021.8017684,E,4,32,0.5,4.541,M,6.809,M,2.0,*71
$GPZDA,052031.00,15,09,2021,00,00,*43
$GPGGA,052032.00,3129.6811633,N,12021.8017728,E,4,32,0.5,4.545,M,6.809,M,2.0,*72
$GPZDA,052032.00,15,09,2021,00,00,*40
$GPGGA,052033.00,3129.6811627,N,12021.8017677,E,4,31,0.5,4.543,M,6.809,M,2.0,*78
$GPZDA,052033.00,15,09,2021,00,00,*41
$GPGGA,052034.00,3129.6811635,N,12021.8017698,E,4,31,0.5,4.543,M,6.809,M,2.0,*7D
$GPZDA,052034.00,15,09,2021,00,00,*46
$GPGGA,052035.00,3129.6811635,N,12021.8017666,E,4,31,0.5,4.539,M,6.809,M,2.0,*70
$GPZDA,052035.00,15,09,2021,00,00,*47
$GPGGA,052036.00,3129.6811625,N,12021.8017671,E,4,32,0.5,4.528,M,6.809,M,2.0,*77
$GPZDA,052036.00,15,09,2021,00,00,*44
$GPGGA,052037.00,3129.6811619,N,12021.8017678,E,4,31,0.5,4.528,M,6.809,M,2.0,*73
$GPZDA,052037.00,15,09,2021,00,00,*45
$GPGGA,052038.00,3129.6811629,N,12021.8017685,E,4,31,0.5,4.528,M,6.809,M,2.0,*7D
$GPZDA,052038.00,15,09,2021,00,00,*4A
$GPGGA,052039.00,3129.6811612,N,12021.8017671,E,4,31,0.5,4.538,M,6.809,M,2.0,*7E
$GPZDA,052039.00,15,09,2021,00,00,*4B
$GPGGA,052040.00,3129.6811423,N,12021.8017798,E,4,30,0.5,4.561,M,6.809,M,2.0,*7B
$GPZDA,052040.00,15,09,2021,00,00,*45
$GPGGA,052041.00,3129.6811520,N,12021.8017787,E,4,30,0.5,4.585,M,6.809,M,2.0,*7C
$GPZDA,052041.00,15,09,2021,00,00,*44
$GPGGA,052042.00,3129.6811522,N,12021.8017854,E,4,30,0.5,4.604,M,6.809,M,2.0,*76
$GPZDA,052042.00,15,09,2021,00,00,*47
$GPGGA,052043.00,3129.6811513,N,12021.8017851,E,4,31,0.5,4.608,M,6.809,M,2.0,*7D
$GPZDA,052043.00,15,09,2021,00,00,*46
$GPGGA,052044.00,3129.6811527,N,12021.8017848,E,4,30,0.5,4.619,M,6.809,M,2.0,*74
$GPZDA,052044.00,15,09,2021,00,00,*41
$GPGGA,052045.00,3129.6811522,N,12021.8017812,E,4,31,0.5,4.638,M,6.809,M,2.0,*7D
$GPZDA,052045.00,15,09,2021,00,00,*40
$GPGGA,052046.00,3129.6811492,N,12021.8017805,E,4,31,0.5,4.656,M,6.809,M,2.0,*7A
$GPZDA,052046.00,15,09,2021,00,00,*43
$GPGGA,052047.00,3129.6811524,N,12021.8017795,E,4,30,0.5,4.634,M,6.809,M,2.0,*74
$GPZDA,052047.00,15,09,2021,00,00,*42
$GPGGA,052048.00,3129.6811519,N,12021.8017799,E,4,30,0.5,4.640,M,6.809,M,2.0,*7A
$GPZDA,052048.00,15,09,2021,00,00,*4D
$GPGGA,052049.00,3129.6811505,N,12021.8018122,E,4,30,0.5,4.603,M,6.809,M,2.0,*78
$GPZDA,052049.00,15,09,2021,00,00,*4C
$GPGGA,052050.00,3129.6811475,N,12021.8018071,E,4,30,0.5,4.600,M,6.809,M,2.0,*72
$GPZDA,052050.00,15,09,2021,00,00,*44
$GPGGA,052051.00,3129.6811486,N,12021.8018107,E,4,31,0.5,4.604,M,6.809,M,2.0,*7A
$GPZDA,052051.00,15,09,2021,00,00,*45
$GPGGA,052052.00,3129.6811490,N,12021.8018047,E,4,31,0.5,4.607,M,6.809,M,2.0,*78
$GPZDA,052052.00,15,09,2021,00,00,*46
$GPGGA,052053.00,3129.6811509,N,12021.8018146,E,4,30,0.5,4.619,M,6.809,M,2.0,*76
$GPZDA,052053.00,15,09,2021,00,00,*47
$GPGGA,052054.00,3129.6811511,N,12021.8018172,E,4,30,0.5,4.609,M,6.809,M,2.0,*7E
$GPZDA,052054.00,15,09,2021,00,00,*40
$GPGGA,052055.00,3129.6811518,N,12021.8018094,E,4,30,0.5,4.608,M,6.809,M,2.0,*7E
$GPZDA,052055.00,15,09,2021,00,00,*41
$GPGGA,052056.00,3129.6811520,N,12021.8018101,E,4,30,0.5,4.606,M,6.809,M,2.0,*75
$GPZDA,052056.00,15,09,2021,00,00,*42
$GPGGA,052057.00,3129.6811517,N,12021.8018169,E,4,30,0.5,4.603,M,6.809,M,2.0,*7B
$GPZDA,052057.00,15,09,2021,00,00,*43
$GPGGA,052058.00,3129.6811529,N,12021.8018134,E,4,30,0.5,4.603,M,6.809,M,2.0,*71
$GPZDA,052058.00,15,09,2021,00,00,*4C
$GPGGA,052059.00,3129.6811541,N,12021.8018170,E,4,30,0.5,4.596,M,6.809,M,2.0,*71
$GPZDA,052059.00,15,09,2021,00,00,*4D
$GPGGA,052100.00,3129.6811537,N,12021.8018178,E,4,29,0.5,4.602,M,6.809,M,2.0,*73
$GPZDA,052100.00,15,09,2021,00,00,*40
$GPGGA,052101.00,3129.6811532,N,12021.8018186,E,4,28,0.5,4.606,M,6.809,M,2.0,*73
$GPZDA,052101.00,15,09,2021,00,00,*41
$GPGGA,052102.00,3129.6811550,N,12021.8018245,E,4,29,0.5,4.605,M,6.809,M,2.0,*7A
$GPZDA,052102.00,15,09,2021,00,00,*42
$GPGGA,052103.00,3129.6811541,N,12021.8018216,E,4,30,0.5,4.602,M,6.809,M,2.0,*72
$GPZDA,052103.00,15,09,2021,00,00,*43
$GPGGA,052104.00,3129.6811559,N,12021.8018243,E,4,29,0.5,4.605,M,6.809,M,2.0,*73
$GPZDA,052104.00,15,09,2021,00,00,*44
$GPGGA,052105.00,3129.6811556,N,12021.8018159,E,4,30,0.5,4.612,M,6.809,M,2.0,*7B
$GPZDA,052105.00,15,09,2021,00,00,*45
$GPGGA,052106.00,3129.6811543,N,12021.8018194,E,4,30,0.5,4.584,M,6.809,M,2.0,*71
$GPZDA,052106.00,15,09,2021,00,00,*46
$GPGGA,052107.00,3129.6811541,N,12021.8018208,E,4,30,0.5,4.601,M,6.809,M,2.0,*7A
$GPZDA,052107.00,15,09,2021,00,00,*47
$GPGGA,052108.00,3129.6811557,N,12021.8018214,E,4,30,0.5,4.596,M,6.809,M,2.0,*72
$GPZDA,052108.00,15,09,2021,00,00,*48
$GPGGA,052109.00,3129.6811539,N,12021.8018206,E,4,29,0.5,4.588,M,6.809,M,2.0,*7F
$GPZDA,052109.00,15,09,2021,00,00,*49
$GPGGA,052110.00,3129.6811570,N,12021.8018248,E,4,29,0.5,4.604,M,6.809,M,2.0,*77
$GPZDA,052110.00,15,09,2021,00,00,*41
$GPGGA,052111.00,3129.6811596,N,12021.8018300,E,4,30,0.5,4.600,M,6.809,M,2.0,*7F
$GPZDA,052111.00,15,09,2021,00,00,*40
$GPGGA,052112.00,3129.6811592,N,12021.8018297,E,4,29,0.5,4.598,M,6.809,M,2.0,*7D
$GPZDA,052112.00,15,09,2021,00,00,*43
$GPGGA,052113.00,3129.6811588,N,12021.8018290,E,4,30,0.5,4.595,M,6.809,M,2.0,*75
$GPZDA,052113.00,15,09,2021,00,00,*42
$GPGGA,052114.00,3129.6811585,N,12021.8018295,E,4,30,0.5,4.603,M,6.809,M,2.0,*76
$GPZDA,052114.00,15,09,2021,00,00,*45
$GPGGA,052115.00,3129.6811625,N,12021.8018394,E,4,30,0.5,4.570,M,6.809,M,2.0,*79
$GPZDA,052115.00,15,09,2021,00,00,*44
$GPGGA,052116.00,3129.6811593,N,12021.8018287,E,4,29,0.5,4.606,M,6.809,M,2.0,*7D
$GPZDA,052116.00,15,09,2021,00,00,*47
$GPGGA,052117.00,3129.6811604,N,12021.8018381,E,4,29,0.5,4.568,M,6.809,M,2.0,*7D
$GPZDA,052117.00,15,09,2021,00,00,*46
$GPGGA,052118.00,3129.6811586,N,12021.8018275,E,4,30,0.5,4.602,M,6.809,M,2.0,*76
$GPZDA,052118.00,15,09,2021,00,00,*49
$GPGGA,052119.00,3129.6811601,N,12021.8018272,E,4,29,0.5,4.611,M,6.809,M,2.0,*76
$GPZDA,052119.00,15,09,2021,00,00,*48
$GPGGA,052120.00,3129.6811594,N,12021.8018287,E,4,30,0.5,4.607,M,6.809,M,2.0,*76
$GPZDA,052120.00,15,09,2021,00,00,*42
$GPGGA,052121.00,3129.6811609,N,12021.8018394,E,4,31,0.5,4.564,M,6.809,M,2.0,*74
$GPZDA,052121.00,15,09,2021,00,00,*43
$GPGGA,052122.00,3129.6811603,N,12021.8018300,E,4,31,0.5,4.604,M,6.809,M,2.0,*75
$GPZDA,052122.00,15,09,2021,00,00,*40
$GPGGA,052123.00,3129.6811608,N,12021.8018301,E,4,31,0.5,4.604,M,6.809,M,2.0,*7E
$GPZDA,052123.00,15,09,2021,00,00,*41
$GPGGA,052124.00,3129.6811600,N,12021.8018394,E,4,31,0.5,4.566,M,6.809,M,2.0,*7A
$GPZDA,052124.00,15,09,2021,00,00,*46
$GPGGA,052125.00,3129.6811598,N,12021.8018280,E,4,31,0.5,4.607,M,6.809,M,2.0,*79
$GPZDA,052125.00,15,09,2021,00,00,*47
$GPGGA,052126.00,3129.6811620,N,12021.8018323,E,4,31,0.5,4.605,M,6.809,M,2.0,*70
$GPZDA,052126.00,15,09,2021,00,00,*44
$GPGGA,052127.00,3129.6811617,N,12021.8018287,E,4,31,0.5,4.609,M,6.809,M,2.0,*76
$GPZDA,052127.00,15,09,2021,00,00,*45
$GPGGA,052128.00,3129.6811477,N,12021.8018079,E,4,32,0.5,4.560,M,6.809,M,2.0,*71
$GPZDA,052128.00,15,09,2021,00,00,*4A
$GPGGA,052129.00,3129.6811506,N,12021.8018171,E,4,32,0.5,4.545,M,6.809,M,2.0,*79
$GPZDA,052129.00,15,09,2021,00,00,*4B
$GPGGA,052130.00,3129.6811251,N,12021.8017796,E,4,31,0.5,4.575,M,6.809,M,2.0,*74
$GPZDA,052130.00,15,09,2021,00,00,*43
$GPGGA,052131.00,3129.6811188,N,12021.8017716,E,4,31,0.5,4.575,M,6.809,M,2.0,*7A
$GPZDA,052131.00,15,09,2021,00,00,*42
$GPGGA,052132.00,3129.6811199,N,12021.8017652,E,4,31,0.5,4.590,M,6.809,M,2.0,*73
$GPZDA,052132.00,15,09,2021,00,00,*41
$GPGGA,052133.00,3129.6811214,N,12021.8017685,E,4,31,0.5,4.590,M,6.809,M,2.0,*7E
$GPZDA,052133.00,15,09,2021,00,00,*40
$GPGGA,052134.00,3129.6811215,N,12021.8017651,E,4,31,0.5,4.587,M,6.809,M,2.0,*77
$GPZDA,052134.00,15,09,2021,00,00,*47
$GPGGA,052135.00,3129.6811174,N,12021.8017631,E,4,31,0.5,4.577,M,6.809,M,2.0,*7B
$GPZDA,052135.00,15,09,2021,00,00,*46
$GPGGA,052136.00,3129.6811525,N,12021.8017763,E,4,31,0.5,4.613,M,6.809,M,2.0,*7F
$GPZDA,052136.00,15,09,2021,00,00,*45
$GPGGA,052137.00,3129.6811547,N,12021.8017851,E,4,31,0.5,4.617,M,6.809,M,2.0,*70
$GPZDA,052137.00,15,09,2021,00,00,*44
$GPGGA,052138.00,3129.6811278,N,12021.8017768,E,4,31,0.5,4.567,M,6.809,M,2.0,*75
$GPZDA,052138.00,15,09,2021,00,00,*4B
$GPGGA,052139.00,3129.6811513,N,12021.8017968,E,4,31,0.5,4.592,M,6.809,M,2.0,*7A
$GPZDA,052139.00,15,09,2021,00,00,*4A
$GPGGA,052140.00,3129.6811477,N,12021.8018035,E,4,30,0.5,4.611,M,6.809,M,2.0,*70
$GPZDA,052140.00,15,09,2021,00,00,*44
$GPGGA,052141.00,3129.6811579,N,12021.8018315,E,4,30,0.5,4.543,M,6.809,M,2.0,*7B
$GPZDA,052141.00,15,09,2021,00,00,*45
$GPGGA,052142.00,3129.6811584,N,12021.8018339,E,4,32,0.5,4.543,M,6.809,M,2.0,*76
$GPZDA,052142.00,15,09,2021,00,00,*46
$GPGGA,052143.00,3129.6811595,N,12021.8018345,E,4,31,0.5,4.537,M,6.809,M,2.0,*7C
$GPZDA,052143.00,15,09,2021,00,00,*47
$GPGGA,052144.00,3129.6811551,N,12021.8018210,E,4,31,0.5,4.567,M,6.809,M,2.0,*77
$GPZDA,052144.00,15,09,2021,00,00,*40
$GPGGA,052145.00,3129.6811545,N,12021.8018225,E,4,30,0.5,4.572,M,6.809,M,2.0,*70
$GPZDA,052145.00,15,09,2021,00,00,*41
$GPGGA,052146.00,3129.6811548,N,12021.8018219,E,4,30,0.5,4.571,M,6.809,M,2.0,*72
$GPZDA,052146.00,15,09,2021,00,00,*42
$GPGGA,052147.00,3129.6811611,N,12021.8018345,E,4,31,0.5,4.593,M,6.809,M,2.0,*79
$GPZDA,052147.00,15,09,2021,00,00,*43
$GPGGA,052148.00,3129.6811620,N,12021.8018334,E,4,29,0.5,4.609,M,6.809,M,2.0,*7B
$GPZDA,052148.00,15,09,2021,00,00,*4C
$GPGGA,052149.00,3129.6811630,N,12021.8018108,E,4,29,0.5,4.657,M,6.809,M,2.0,*7D
$GPZDA,052149.00,15,09,2021,00,00,*4D
$GPGGA,052150.00,3129.6811648,N,12021.8018097,E,4,30,0.5,4.661,M,6.809,M,2.0,*70
$GPZDA,052150.00,15,09,2021,00,00,*45
$GPGGA,052151.00,3129.6811569,N,12021.8018295,E,4,29,0.5,4.548,M,6.809,M,2.0,*71
$GPZDA,052151.00,15,09,2021,00,00,*44
$GPGGA,052152.00,3129.6811585,N,12021.8018310,E,4,29,0.5,4.546,M,6.809,M,2.0,*72
$GPZDA,052152.00,15,09,2021,00,00,*47
$GPGGA,052153.00,3129.6811586,N,12021.8018316,E,4,30,0.5,4.550,M,6.809,M,2.0,*79
$GPZDA,052153.00,15,09,2021,00,00,*46
$GPGGA,052154.00,3129.6811598,N,12021.8018337,E,4,29,0.5,4.545,M,6.809,M,2.0,*7E
$GPZDA,052154.00,15,09,2021,00,00,*41
$GPGGA,052155.00,3129.6811573,N,12021.8018297,E,4,28,0.5,4.544,M,6.809,M,2.0,*71
$GPZDA,052155.00,15,09,2021,00,00,*40
$GPGGA,052156.00,3129.6811554,N,12021.8018223,E,4,28,0.5,4.539,M,6.809,M,2.0,*72
$GPZDA,052156.00,15,09,2021,00,00,*43
$GPGGA,052157.00,3129.6811567,N,12021.8018210,E,4,30,0.5,4.539,M,6.809,M,2.0,*7A
$GPZDA,052157.00,15,09,2021,00,00,*42
$GPGGA,052158.00,3129.6811646,N,12021.8017862,E,4,30,0.5,4.663,M,6.809,M,2.0,*79
$GPZDA,052158.00,15,09,2021,00,00,*4D
$GPGGA,052159.00,3129.6811675,N,12021.8018365,E,4,30,0.5,4.591,M,6.809,M,2.0,*75
$GPZDA,052159.00,15,09,2021,00,00,*4C
$GPGGA,052200.00,3129.6811683,N,12021.8018458,E,4,23,0.6,4.564,M,6.809,M,2.0,*71
$GPZDA,052200.00,15,09,2021,00,00,*43
$GPGGA,052201.00,3129.6811716,N,12021.8018333,E,4,32,0.5,4.563,M,6.809,M,2.0,*73
$GPZDA,052201.00,15,09,2021,00,00,*42
$GPGGA,052202.00,3129.6811677,N,12021.8018381,E,4,32,0.5,4.546,M,6.809,M,2.0,*78
$GPZDA,052202.00,15,09,2021,00,00,*41
$GPGGA,052203.00,3129.6811676,N,12021.8018398,E,4,23,0.6,4.555,M,6.809,M,2.0,*71
$GPZDA,052203.00,15,09,2021,00,00,*40
$GPGGA,052204.00,3129.6811694,N,12021.8018368,E,4,31,0.5,4.554,M,6.809,M,2.0,*74
$GPZDA,052204.00,15,09,2021,00,00,*47
$GPGGA,052205.00,3129.6811738,N,12021.8018417,E,4,31,0.5,4.558,M,6.809,M,2.0,*71
$GPZDA,052205.00,15,09,2021,00,00,*46
$GPGGA,052206.00,3129.6811736,N,12021.8018425,E,4,31,0.5,4.571,M,6.809,M,2.0,*76
$GPZDA,052206.00,15,09,2021,00,00,*45
$GPGGA,052207.00,3129.6811740,N,12021.8018412,E,4,30,0.5,4.574,M,6.809,M,2.0,*76
$GPZDA,052207.00,15,09,2021,00,00,*44
$GPGGA,052208.00,3129.6811736,N,12021.8018452,E,4,31,0.5,4.580,M,6.809,M,2.0,*76
$GPZDA,052208.00,15,09,2021,00,00,*4B
$GPGGA,052209.00,3129.6811728,N,12021.8018410,E,4,32,0.5,4.574,M,6.809,M,2.0,*76
$GPZDA,052209.00,15,09,2021,00,00,*4A
$GPGGA,052210.00,3129.6811707,N,12021.8018450,E,4,32,0.5,4.566,M,6.809,M,2.0,*74
$GPZDA,052210.00,15,09,2021,00,00,*42
$GPGGA,052211.00,3129.6811717,N,12021.8018440,E,4,31,0.5,4.565,M,6.809,M,2.0,*75
$GPZDA,052211.00,15,09,2021,00,00,*43
$GPGGA,052212.00,3129.6811720,N,12021.8018415,E,4,30,0.5,4.566,M,6.809,M,2.0,*70
$GPZDA,052212.00,15,09,2021,00,00,*40
$GPGGA,052213.00,3129.6811701,N,12021.8018407,E,4,32,0.5,4.567,M,6.809,M,2.0,*72
$GPZDA,052213.00,15,09,2021,00,00,*41
$GPGGA,052214.00,3129.6811709,N,12021.8018417,E,4,31,0.5,4.568,M,6.809,M,2.0,*70
$GPZDA,052214.00,15,09,2021,00,00,*46
$GPGGA,052215.00,3129.6811700,N,12021.8018450,E,4,31,0.5,4.559,M,6.809,M,2.0,*79
$GPZDA,052215.00,15,09,2021,00,00,*47
$GPGGA,052216.00,3129.6811705,N,12021.8018446,E,4,31,0.5,4.562,M,6.809,M,2.0,*70
$GPZDA,052216.00,15,09,2021,00,00,*44
$GPGGA,052217.00,3129.6811700,N,12021.8018441,E,4,31,0.5,4.558,M,6.809,M,2.0,*7A
$GPZDA,052217.00,15,09,2021,00,00,*45
$GPGGA,052218.00,3129.6811693,N,12021.8018476,E,4,31,0.5,4.554,M,6.809,M,2.0,*76
$GPZDA,052218.00,15,09,2021,00,00,*4A
$GPGGA,052219.00,3129.6811717,N,12021.8018457,E,4,31,0.5,4.559,M,6.809,M,2.0,*74
$GPZDA,052219.00,15,09,2021,00,00,*4B
$GPGGA,052220.00,3129.6811707,N,12021.8018532,E,4,30,0.5,4.561,M,6.809,M,2.0,*77
$GPZDA,052220.00,15,09,2021,00,00,*41
$GPGGA,052221.00,3129.6811700,N,12021.8018458,E,4,31,0.5,4.571,M,6.809,M,2.0,*7C
$GPZDA,052221.00,15,09,2021,00,00,*40
$GPGGA,052222.00,3129.6811708,N,12021.8018415,E,4,30,0.5,4.562,M,6.809,M,2.0,*7D
$GPZDA,052222.00,15,09,2021,00,00,*43
$GPGGA,052223.00,3129.6811707,N,12021.8018425,E,4,30,0.5,4.562,M,6.809,M,2.0,*70
$GPZDA,052223.00,15,09,2021,00,00,*42
$GPGGA,052224.00,3129.6811704,N,12021.8018473,E,4,31,0.5,4.566,M,6.809,M,2.0,*72
$GPZDA,052224.00,15,09,2021,00,00,*45
$GPGGA,052225.00,3129.6811707,N,12021.8018455,E,4,31,0.5,4.562,M,6.809,M,2.0,*70
$GPZDA,052225.00,15,09,2021,00,00,*44
$GPGGA,052226.00,3129.6811698,N,12021.8018443,E,4,23,0.6,4.557,M,6.809,M,2.0,*75
$GPZDA,052226.00,15,09,2021,00,00,*47
$GPGGA,052227.00,3129.6811688,N,12021.8018481,E,4,31,0.5,4.549,M,6.809,M,2.0,*74
$GPZDA,052227.00,15,09,2021,00,00,*46
$GPGGA,052228.00,3129.6811693,N,12021.8018476,E,4,32,0.5,4.553,M,6.809,M,2.0,*71
$GPZDA,052228.00,15,09,2021,00,00,*49
$GPGGA,052229.00,3129.6811711,N,12021.8018456,E,4,32,0.5,4.553,M,6.809,M,2.0,*79
$GPZDA,052229.00,15,09,2021,00,00,*48
$GPGGA,052230.00,3129.6811698,N,12021.8018447,E,4,32,0.5,4.557,M,6.809,M,2.0,*75
$GPZDA,052230.00,15,09,2021,00,00,*40
$GPGGA,052231.00,3129.6811680,N,12021.8018400,E,4,32,0.5,4.556,M,6.809,M,2.0,*7F
$GPZDA,052231.00,15,09,2021,00,00,*41
$GPGGA,052232.00,3129.6811690,N,12021.8018428,E,4,32,0.5,4.554,M,6.809,M,2.0,*75
$GPZDA,052232.00,15,09,2021,00,00,*42
$GPGGA,052233.00,3129.6811687,N,12021.8018435,E,4,32,0.5,4.561,M,6.809,M,2.0,*78
$GPZDA,052233.00,15,09,2021,00,00,*43
$GPGGA,052234.00,3129.6811698,N,12021.8018437,E,4,32,0.5,4.557,M,6.809,M,2.0,*76
$GPZDA,052234.00,15,09,2021,00,00,*44
$GPGGA,052235.00,3129.6811680,N,12021.8018409,E,4,31,0.5,4.557,M,6.809,M,2.0,*70
$GPZDA,052235.00,15,09,2021,00,00,*45
$GPGGA,052236.00,3129.6811692,N,12021.8018440,E,4,31,0.5,4.558,M,6.809,M,2.0,*72
$GPZDA,052236.00,15,09,2021,00,00,*46
$GPGGA,052237.00,3129.6811679,N,12021.8018425,E,4,32,0.5,4.559,M,6.809,M,2.0,*77
$GPZDA,052237.00,15,09,2021,00,00,*47
$GPGGA,052238.00,3129.6811678,N,12021.8018419,E,4,31,0.5,4.552,M,6.809,M,2.0,*7E
$GPZDA,052238.00,15,09,2021,00,00,*48
$GPGGA,052239.00,3129.6811672,N,12021.8018417,E,4,31,0.5,4.550,M,6.809,M,2.0,*79
$GPZDA,052239.00,15,09,2021,00,00,*49
$GPGGA,052240.00,3129.6811752,N,12021.8018427,E,4,31,0.5,4.563,M,6.809,M,2.0,*77
$GPZDA,052240.00,15,09,2021,00,00,*47
$GPGGA,052241.00,3129.6811773,N,12021.8018441,E,4,32,0.5,4.577,M,6.809,M,3.0,*72
$GPZDA,052241.00,15,09,2021,00,00,*46
$GPGGA,052242.00,3129.6811767,N,12021.8018449,E,4,31,0.5,4.579,M,6.809,M,2.0,*70
$GPZDA,052242.00,15,09,2021,00,00,*45
$GPGGA,052243.00,3129.6811756,N,12021.8018436,E,4,29,0.5,4.579,M,6.809,M,2.0,*72
$GPZDA,052243.00,15,09,2021,00,00,*44
$GPGGA,052244.00,3129.6811776,N,12021.8018454,E,4,30,0.5,4.580,M,6.809,M,2.0,*7D
$GPZDA,052244.00,15,09,2021,00,00,*43
$GPGGA,052245.00,3129.6811765,N,12021.8018457,E,4,31,0.5,4.569,M,6.809,M,2.0,*7B
$GPZDA,052245.00,15,09,2021,00,00,*42
$GPGGA,052246.00,3129.6811748,N,12021.8018446,E,4,28,0.5,4.577,M,6.809,M,2.0,*70
$GPZDA,052246.00,15,09,2021,00,00,*41
$GPGGA,052247.00,3129.6811745,N,12021.8018404,E,4,30,0.5,4.576,M,6.809,M,2.0,*72
$GPZDA,052247.00,15,09,2021,00,00,*40
$GPGGA,052248.00,3129.6811748,N,12021.8018421,E,4,30,0.5,4.569,M,6.809,M,2.0,*79
$GPZDA,052248.00,15,09,2021,00,00,*4F
$GPGGA,052249.00,3129.6811760,N,12021.8018425,E,4,30,0.5,4.579,M,6.809,M,2.0,*77
$GPZDA,052249.00,15,09,2021,00,00,*4E
$GPGGA,052250.00,3129.6811751,N,12021.8018423,E,4,31,0.5,4.577,M,6.809,M,2.0,*74
$GPZDA,052250.00,15,09,2021,00,00,*46
$GPGGA,052251.00,3129.6811758,N,12021.8018427,E,4,31,0.5,4.577,M,6.809,M,2.0,*78
$GPZDA,052251.00,15,09,2021,00,00,*47
$GPGGA,052252.00,3129.6811761,N,12021.8018435,E,4,31,0.5,4.572,M,6.809,M,2.0,*77
$GPZDA,052252.00,15,09,2021,00,00,*44
$GPGGA,052253.00,3129.6812397,N,12021.8017722,E,4,31,0.5,4.565,M,6.809,M,2.0,*74
$GPZDA,052253.00,15,09,2021,00,00,*45
$GPGGA,052254.00,3129.6814591,N,12021.8015248,E,4,28,0.5,4.560,M,6.809,M,2.0,*73
$GPZDA,052254.00,15,09,2021,00,00,*42
$GPGGA,052255.00,3129.6819155,N,12021.8010225,E,4,28,0.5,4.520,M,6.809,M,2.0,*79
$GPZDA,052255.00,15,09,2021,00,00,*43
$GPGGA,052256.00,3129.6820339,N,12021.8009141,E,4,29,0.5,4.584,M,6.809,M,2.0,*7E
$GPZDA,052256.00,15,09,2021,00,00,*40
$GPGGA,052257.00,3129.6820343,N,12021.8009106,E,4,30,0.5,4.560,M,6.809,M,2.0,*73
$GPZDA,052257.00,15,09,2021,00,00,*41
$GPGGA,052258.00,3129.6820289,N,12021.8009084,E,4,28,0.5,4.552,M,6.809,M,2.0,*78
$GPZDA,052258.00,15,09,2021,00,00,*4E
$GPGGA,052259.00,3129.6820295,N,12021.8009070,E,4,30,0.5,4.550,M,6.809,M,2.0,*74
$GPZDA,052259.00,15,09,2021,00,00,*4F
$GPGGA,052300.00,3129.6820274,N,12021.8009085,E,4,30,0.5,4.543,M,6.809,M,2.0,*7E
$GPZDA,052300.00,15,09,2021,00,00,*42
$GPGGA,052301.00,3129.6820253,N,12021.8008988,E,4,30,0.5,4.553,M,6.809,M,2.0,*7E
$GPZDA,052301.00,15,09,2021,00,00,*43
$GPGGA,052302.00,3129.6820289,N,12021.8009062,E,4,31,0.5,4.551,M,6.809,M,2.0,*75
$GPZDA,052302.00,15,09,2021,00,00,*40
$GPGGA,052303.00,3129.6820337,N,12021.8009073,E,4,32,0.5,4.552,M,6.809,M,2.0,*70
$GPZDA,052303.00,15,09,2021,00,00,*41
$GPGGA,052304.00,3129.6820372,N,12021.8009006,E,4,32,0.5,4.534,M,6.809,M,2.0,*74
$GPZDA,052304.00,15,09,2021,00,00,*46
$GPGGA,052305.00,3129.6820371,N,12021.8009011,E,4,32,0.5,4.533,M,6.809,M,2.0,*77
$GPZDA,052305.00,15,09,2021,00,00,*47
$GPGGA,052306.00,3129.6820305,N,12021.8009042,E,4,32,0.5,4.571,M,6.809,M,2.0,*77
$GPZDA,052306.00,15,09,2021,00,00,*44
$GPGGA,052307.00,3129.6820349,N,12021.8009132,E,4,32,0.5,4.563,M,6.809,M,2.0,*7B
$GPZDA,052307.00,15,09,2021,00,00,*45
$GPGGA,052308.00,3129.6820359,N,12021.8009018,E,4,32,0.5,4.524,M,6.809,M,2.0,*7F
$GPZDA,052308.00,15,09,2021,00,00,*4A
$GPGGA,052309.00,3129.6820323,N,12021.8009077,E,4,31,0.5,4.554,M,6.809,M,2.0,*7E
$GPZDA,052309.00,15,09,2021,00,00,*4B
$GPGGA,052310.00,3129.6820300,N,12021.8009112,E,4,31,0.5,4.553,M,6.809,M,2.0,*72
$GPZDA,052310.00,15,09,2021,00,00,*43
$GPGGA,052311.00,3129.6820335,N,12021.8008994,E,4,31,0.5,4.519,M,6.809,M,2.0,*7C
$GPZDA,052311.00,15,09,2021,00,00,*42
$GPGGA,052312.00,3129.6820349,N,12021.8008979,E,4,31,0.5,4.529,M,6.809,M,2.0,*74
$GPZDA,052312.00,15,09,2021,00,00,*41
$GPGGA,052313.00,3129.6820350,N,12021.8009016,E,4,31,0.5,4.520,M,6.809,M,2.0,*75
$GPZDA,052313.00,15,09,2021,00,00,*40
$GPGGA,052314.00,3129.6820358,N,12021.8008986,E,4,32,0.5,4.525,M,6.809,M,2.0,*7D
$GPZDA,052314.00,15,09,2021,00,00,*47
$GPGGA,052315.00,3129.6820346,N,12021.8009005,E,4,32,0.5,4.528,M,6.809,M,2.0,*7D
$GPZDA,052315.00,15,09,2021,00,00,*46
$GPGGA,052316.00,3129.6820353,N,12021.8008940,E,4,32,0.5,4.526,M,6.809,M,2.0,*7D
$GPZDA,052316.00,15,09,2021,00,00,*45
$GPGGA,052317.00,3129.6820363,N,12021.8009001,E,4,32,0.5,4.535,M,6.809,M,2.0,*70
$GPZDA,052317.00,15,09,2021,00,00,*44
$GPGGA,052318.00,3129.6820345,N,12021.8009016,E,4,32,0.5,4.542,M,6.809,M,2.0,*7D
$GPZDA,052318.00,15,09,2021,00,00,*4B
$GPGGA,052319.00,3129.6820380,N,12021.8008918,E,4,32,0.5,4.566,M,6.809,M,2.0,*75
$GPZDA,052319.00,15,09,2021,00,00,*4A
$GPGGA,052320.00,3129.6820286,N,12021.8009011,E,4,32,0.5,4.585,M,6.809,M,2.0,*74
$GPZDA,052320.00,15,09,2021,00,00,*40
$GPGGA,052321.00,3129.6820276,N,12021.8009001,E,4,30,0.5,4.580,M,6.809,M,2.0,*7C
$GPZDA,052321.00,15,09,2021,00,00,*41
$GPGGA,052322.00,3129.6820354,N,12021.8008998,E,4,31,0.5,4.534,M,6.809,M,3.0,*79
$GPZDA,052322.00,15,09,2021,00,00,*42
$GPGGA,052323.00,3129.6820346,N,12021.8008952,E,4,32,0.5,4.589,M,6.809,M,3.0,*78
$GPZDA,052323.00,15,09,2021,00,00,*43
$GPGGA,052324.00,3129.6820388,N,12021.8008922,E,4,32,0.5,4.558,M,6.809,M,4.0,*71
$GPZDA,052324.00,15,09,2021,00,00,*44
$GPGGA,052325.00,3129.6820277,N,12021.8008975,E,4,32,0.5,4.571,M,6.809,M,2.0,*7E
$GPZDA,052325.00,15,09,2021,00,00,*45
$GPGGA,052326.00,3129.6820285,N,12021.8008966,E,4,31,0.5,4.571,M,6.809,M,2.0,*71
$GPZDA,052326.00,15,09,2021,00,00,*46
$GPGGA,052327.00,3129.6820273,N,12021.8008977,E,4,32,0.5,4.572,M,6.809,M,2.0,*79
$GPZDA,052327.00,15,09,2021,00,00,*47
$GPGGA,052328.00,3129.6820372,N,12021.8008897,E,4,32,0.5,4.556,M,6.809,M,2.0,*7F
$GPZDA,052328.00,15,09,2021,00,00,*48
$GPGGA,052329.00,3129.6820257,N,12021.8008938,E,4,32,0.5,4.561,M,6.809,M,2.0,*78
$GPZDA,052329.00,15,09,2021,00,00,*49
$GPGGA,052330.00,3129.6820272,N,12021.8008943,E,4,32,0.5,4.564,M,6.809,M,2.0,*7E
$GPZDA,052330.00,15,09,2021,00,00,*41
$GPGGA,052331.00,3129.6820333,N,12021.8008872,E,4,31,0.5,4.575,M,6.809,M,2.0,*7B
$GPZDA,052331.00,15,09,2021,00,00,*40
$GPGGA,052332.00,3129.6820334,N,12021.8008869,E,4,31,0.5,4.583,M,6.809,M,2.0,*7C
$GPZDA,052332.00,15,09,2021,00,00,*43
$GPGGA,052333.00,3129.6820334,N,12021.8008875,E,4,31,0.5,4.584,M,6.809,M,2.0,*77
$GPZDA,052333.00,15,09,2021,00,00,*42
$GPGGA,052334.00,3129.6820828,N,12021.8008344,E,4,31,0.5,4.582,M,6.809,M,2.0,*79
$GPZDA,052334.00,15,09,2021,00,00,*45
$GPGGA,052335.00,3129.6824719,N,12021.8004244,E,4,31,0.5,4.551,M,6.809,M,2.0,*72
$GPZDA,052335.00,15,09,2021,00,00,*44
$GPGGA,052336.00,3129.6832349,N,12021.7995597,E,4,31,0.5,4.416,M,6.809,M,2.0,*72
$GPZDA,052336.00,15,09,2021,00,00,*47
$GPGGA,052337.00,3129.6842920,N,12021.7983954,E,4,30,0.5,4.508,M,6.809,M,2.0,*7A
$GPZDA,052337.00,15,09,2021,00,00,*46
$GPGGA,052338.00,3129.6853455,N,12021.7972051,E,4,29,0.5,4.519,M,6.809,M,2.0,*70
$GPZDA,052338.00,15,09,2021,00,00,*49
$GPGGA,052339.00,3129.6861877,N,12021.7963068,E,4,30,0.5,4.516,M,6.809,M,2.0,*71
$GPZDA,052339.00,15,09,2021,00,00,*48
$GPGGA,052340.00,3129.6867847,N,12021.7956785,E,4,31,0.5,4.538,M,6.809,M,2.0,*75
$GPZDA,052340.00,15,09,2021,00,00,*46
$GPGGA,052341.00,3129.6872498,N,12021.7951794,E,4,31,0.5,4.504,M,6.809,M,2.0,*76
$GPZDA,052341.00,15,09,2021,00,00,*47
$GPGGA,052342.00,3129.6877426,N,12021.7946762,E,4,30,0.5,4.545,M,6.809,M,2.0,*7E
$GPZDA,052342.00,15,09,2021,00,00,*44
$GPGGA,052343.00,3129.6882347,N,12021.7941649,E,4,29,0.5,4.559,M,6.809,M,2.0,*7F
$GPZDA,052343.00,15,09,2021,00,00,*45
$GPGGA,052344.00,3129.6885928,N,12021.7937855,E,4,29,0.5,4.542,M,6.809,M,2.0,*74
$GPZDA,052344.00,15,09,2021,00,00,*42
$GPGGA,052345.00,3129.6888047,N,12021.7935609,E,4,30,0.5,4.502,M,6.809,M,2.0,*71
$GPZDA,052345.00,15,09,2021,00,00,*43
$GPGGA,052346.00,3129.6889540,N,12021.7933964,E,4,29,0.5,4.515,M,6.809,M,2.0,*7D
$GPZDA,052346.00,15,09,2021,00,00,*40
$GPGGA,052347.00,3129.6890020,N,12021.7933486,E,4,28,0.5,4.508,M,6.809,M,2.0,*7B
$GPZDA,052347.00,15,09,2021,00,00,*41
$GPGGA,052348.00,3129.6889997,N,12021.7933573,E,4,29,0.5,4.539,M,6.809,M,2.0,*71
$GPZDA,052348.00,15,09,2021,00,00,*4E
$GPGGA,052349.00,3129.6890004,N,12021.7933587,E,4,28,0.5,4.542,M,6.809,M,2.0,*7D
$GPZDA,052349.00,15,09,2021,00,00,*4F
$GPGGA,052350.00,3129.6890006,N,12021.7933569,E,4,28,0.5,4.531,M,6.809,M,2.0,*73
$GPZDA,052350.00,15,09,2021,00,00,*47
$GPGGA,052351.00,3129.6889947,N,12021.7933513,E,4,27,0.5,4.531,M,6.809,M,2.0,*74
$GPZDA,052351.00,15,09,2021,00,00,*46
$GPGGA,052352.00,3129.6890037,N,12021.7933389,E,4,28,0.5,4.499,M,6.809,M,2.0,*78
$GPZDA,052352.00,15,09,2021,00,00,*45
$GPGGA,052353.00,3129.6890760,N,12021.7932622,E,4,27,0.5,4.492,M,6.809,M,2.0,*7D
$GPZDA,052353.00,15,09,2021,00,00,*44
$GPGGA,052354.00,3129.6893420,N,12021.7929885,E,4,27,0.5,4.528,M,6.809,M,2.0,*77
$GPZDA,052354.00,15,09,2021,00,00,*43
$GPGGA,052355.00,3129.6898872,N,12021.7924039,E,4,28,0.5,4.531,M,6.809,M,2.0,*73
$GPZDA,052355.00,15,09,2021,00,00,*42
$GPGGA,052356.00,3129.6904882,N,12021.7917474,E,4,26,0.5,4.535,M,6.809,M,2.0,*7C
$GPZDA,052356.00,15,09,2021,00,00,*41
$GPGGA,052357.00,3129.6910911,N,12021.7911037,E,4,27,0.5,4.521,M,6.809,M,2.0,*72
$GPZDA,052357.00,15,09,2021,00,00,*40
$GPGGA,052358.00,3129.6916053,N,12021.7905612,E,4,27,0.5,4.524,M,6.809,M,2.0,*75
$GPZDA,052358.00,15,09,2021,00,00,*4F
$GPGGA,052359.00,3129.6922586,N,12021.7898853,E,4,28,0.5,4.474,M,6.809,M,2.0,*7B
$GPZDA,052359.00,15,09,2021,00,00,*4E
$GPGGA,052400.00,3129.6934983,N,12021.7886840,E,4,28,0.5,4.549,M,6.809,M,2.0,*7C
$GPZDA,052400.00,15,09,2021,00,00,*45
$GPGGA,052401.00,3129.6952279,N,12021.7868927,E,4,27,0.5,4.533,M,6.809,M,2.0,*71
$GPZDA,052401.00,15,09,2021,00,00,*44
$GPGGA,052402.00,3129.6972875,N,12021.7847777,E,4,26,0.5,4.564,M,6.809,M,2.0,*73
$GPZDA,052402.00,15,09,2021,00,00,*47
$GPGGA,052403.00,3129.6994760,N,12021.7825124,E,4,27,0.5,4.545,M,6.809,M,2.0,*77
$GPZDA,052403.00,15,09,2021,00,00,*46
$GPGGA,052404.00,3129.7017533,N,12021.7803169,E,4,27,0.5,4.542,M,6.809,M,2.0,*7D
$GPZDA,052404.00,15,09,2021,00,00,*41
$GPGGA,052405.00,3129.7041220,N,12021.7784075,E,4,27,0.5,4.557,M,6.809,M,2.0,*72
$GPZDA,052405.00,15,09,2021,00,00,*40
$GPGGA,052406.00,3129.7066957,N,12021.7769709,E,4,26,0.6,4.587,M,6.809,M,2.0,*7F
$GPZDA,052406.00,15,09,2021,00,00,*43
$GPGGA,052407.00,3129.7095047,N,12021.7763038,E,4,27,0.5,4.638,M,6.809,M,2.0,*70
$GPZDA,052407.00,15,09,2021,00,00,*42
$GPGGA,052408.00,3129.7124197,N,12021.7768769,E,4,29,0.5,4.687,M,6.809,M,2.0,*7A
$GPZDA,052408.00,15,09,2021,00,00,*4D
$GPGGA,052409.00,3129.7152219,N,12021.7788062,E,4,29,0.5,4.807,M,6.809,M,2.0,*7B
$GPZDA,052409.00,15,09,2021,00,00,*4C
$GPGGA,052410.00,3129.7177677,N,12021.7818237,E,4,29,0.5,4.815,M,6.809,M,2.0,*7F
$GPZDA,052410.00,15,09,2021,00,00,*44
$GPGGA,052411.00,3129.7204565,N,12021.7854280,E,4,29,0.5,4.807,M,6.809,M,2.0,*7E
$GPZDA,052411.00,15,09,2021,00,00,*45
$GPGGA,052412.00,3129.7233515,N,12021.7895161,E,4,30,0.5,4.814,M,6.809,M,2.0,*75
$GPZDA,052412.00,15,09,2021,00,00,*46
$GPGGA,052413.00,3129.7264118,N,12021.7940483,E,4,31,0.4,4.821,M,6.809,M,2.0,*79
$GPZDA,052413.00,15,09,2021,00,00,*47
$GPGGA,052414.00,3129.7297346,N,12021.7989010,E,4,31,0.4,4.843,M,6.809,M,2.0,*74
$GPZDA,052414.00,15,09,2021,00,00,*40
$GPGGA,052415.00,3129.7333357,N,12021.8040094,E,4,31,0.4,4.895,M,6.809,M,3.0,*7F
$GPZDA,052415.00,15,09,2021,00,00,*41
$GPGGA,052416.00,3129.7371844,N,12021.8093410,E,4,31,0.4,4.896,M,6.809,M,3.0,*76
$GPZDA,052416.00,15,09,2021,00,00,*42
$GPGGA,052417.00,3129.7412575,N,12021.8148848,E,4,30,0.5,4.918,M,6.809,M,2.0,*7A
$GPZDA,052417.00,15,09,2021,00,00,*43
$GPGGA,052418.00,3129.7455225,N,12021.8206106,E,4,28,0.5,4.936,M,6.809,M,2.0,*7B
$GPZDA,052418.00,15,09,2021,00,00,*4C
$GPGGA,052419.00,3129.7499770,N,12021.8265236,E,4,31,0.4,4.919,M,6.809,M,2.0,*7E
$GPZDA,052419.00,15,09,2021,00,00,*4D
$GPGGA,052420.00,3129.7545872,N,12021.8325660,E,4,28,0.5,4.884,M,6.809,M,2.0,*77
$GPZDA,052420.00,15,09,2021,00,00,*47
$GPGGA,052421.00,3129.7593615,N,12021.8386713,E,4,30,0.5,4.965,M,6.809,M,2.0,*79
$GPZDA,052421.00,15,09,2021,00,00,*46
$GPGGA,052422.00,3129.7641487,N,12021.8447493,E,4,31,0.4,4.957,M,6.809,M,2.0,*7F
$GPZDA,052422.00,15,09,2021,00,00,*45
$GPGGA,052423.00,3129.7688668,N,12021.8507466,E,4,30,0.5,4.950,M,6.809,M,2.0,*70
$GPZDA,052423.00,15,09,2021,00,00,*44
$GPGGA,052424.00,3129.7734914,N,12021.8566506,E,4,29,0.5,4.926,M,6.809,M,2.0,*7C
$GPZDA,052424.00,15,09,2021,00,00,*43
$GPGGA,052425.00,3129.7780450,N,12021.8623841,E,4,31,0.5,4.872,M,6.809,M,2.0,*7A
$GPZDA,052425.00,15,09,2021,00,00,*42
$GPGGA,052426.00,3129.7824981,N,12021.8678871,E,4,28,0.5,4.817,M,6.809,M,2.0,*7F
$GPZDA,052426.00,15,09,2021,00,00,*41
$GPGGA,052427.00,3129.7868550,N,12021.8731736,E,4,28,0.5,4.795,M,6.809,M,2.0,*73
$GPZDA,052427.00,15,09,2021,00,00,*40
$GPGGA,052428.00,3129.7911939,N,12021.8783338,E,4,30,0.4,4.747,M,6.809,M,2.0,*74
$GPZDA,052428.00,15,09,2021,00,00,*4F
$GPGGA,052429.00,3129.7956433,N,12021.8835920,E,4,30,0.4,4.643,M,6.809,M,2.0,*75
$GPZDA,052429.00,15,09,2021,00,00,*4E
$GPGGA,052430.00,3129.8002095,N,12021.8890755,E,4,30,0.4,4.651,M,6.809,M,2.0,*72
$GPZDA,052430.00,15,09,2021,00,00,*46
$GPGGA,052431.00,3129.8048256,N,12021.8946360,E,4,30,0.4,4.685,M,6.809,M,2.0,*71
$GPZDA,052431.00,15,09,2021,00,00,*47
$GPGGA,052432.00,3129.8094289,N,12021.9001576,E,4,29,0.5,4.563,M,6.809,M,2.0,*79
$GPZDA,052432.00,15,09,2021,00,00,*44
$GPGGA,052433.00,3129.8140040,N,12021.9056528,E,4,28,0.5,4.608,M,6.809,M,2.0,*71
$GPZDA,052433.00,15,09,2021,00,00,*45
$GPGGA,052434.00,3129.8185099,N,12021.9109883,E,4,26,0.5,4.552,M,6.809,M,2.0,*7E
$GPZDA,052434.00,15,09,2021,00,00,*42
$GPGGA,052435.00,3129.8229101,N,12021.9162097,E,4,23,0.6,4.569,M,6.809,M,2.0,*74
$GPZDA,052435.00,15,09,2021,00,00,*43
